City_ID,City,Lat,Lng,Max Temp,Humidity,Cloudiness,Wind Speed,Country,Date
0,kargasok,59.0556,80.8572,-4.0,78,100,5.09,RU,1680362045
1,nizhniy tsasuchey,50.5167,115.1333,-0.77,33,100,6.33,RU,1680362045
2,stepnogorsk,52.3544,71.8869,-0.26,46,1,5.21,KZ,1680362046
3,nyagan,62.1406,65.3936,2.28,95,100,5.13,RU,1680362046
4,torbay,47.6666,-52.7314,3.65,75,13,1.79,CA,1680362046
5,port elizabeth,-33.918,25.5701,25.05,51,2,2.24,ZA,1680362047
6,faanui,-16.4833,-151.75,27.72,73,27,2.56,PF,1680361759
7,albany,42.6001,-73.9662,13.74,93,100,4.48,US,1680362047
8,bousso,10.4795,16.7117,40.27,16,21,1.21,TD,1680362047
9,butaritari,3.0707,172.7902,27.47,72,100,5.26,KI,1680362048
10,soyo,-6.1349,12.3689,26.93,78,87,3.71,AO,1680362048
11,ushuaia,-54.8,-68.3,7.81,71,0,2.57,AR,1680361891
12,mataura,-46.1927,168.8643,13.04,91,66,1.23,NZ,1680362048
13,hermanus,-34.4187,19.2345,23.22,56,0,8.37,ZA,1680362048
14,nikolskoye,59.7035,30.7861,1.0,97,100,3.38,RU,1680362048
15,vaini,-21.2,-175.2,25.09,94,20,2.57,TO,1680362049
16,saint-philippe,-21.3585,55.7679,27.77,86,57,4.43,RE,1680362049
17,leningradskiy,69.3833,178.4167,-13.49,91,100,11.02,RU,1680361798
18,bethel,41.3712,-73.414,15.05,89,100,5.66,US,1680362049
19,rikitea,-23.1203,-134.9692,26.39,81,42,6.64,PF,1680362049
20,barrow,71.2906,-156.7887,-16.99,92,100,1.54,US,1680361757
21,anadyr,64.75,177.4833,-12.72,92,33,10.0,RU,1680362049
22,chuy,-33.6971,-53.4616,21.53,47,36,6.34,UY,1680362049
23,longyearbyen,78.2186,15.6401,-11.09,67,75,5.66,SJ,1680361753
24,pisco,-13.7,-76.2167,24.45,83,0,3.09,PE,1680361753
25,malakal,9.5334,31.6605,36.36,7,97,2.67,SS,1680362050
26,flinders,-34.5833,150.8552,16.21,87,84,2.24,AU,1680362050
27,hilo,19.7297,-155.09,21.25,92,0,2.06,US,1680362050
28,dikson,73.5069,80.5464,-8.16,89,100,9.34,RU,1680362050
29,jamestown,42.097,-79.2353,15.77,47,0,7.72,US,1680361985
30,kaitangata,-46.2817,169.8464,11.62,88,99,2.28,NZ,1680362051
31,airai,-8.9266,125.4092,16.32,97,100,0.56,TL,1680362051
32,norman wells,65.282,-126.8329,-12.87,94,100,0.6,CA,1680362051
33,kapaa,22.0752,-159.319,22.18,94,100,3.09,US,1680362051
34,pauini,-7.7136,-66.9764,24.39,95,100,0.78,BR,1680362051
35,punta arenas,-53.15,-70.9167,9.06,57,75,3.6,CL,1680361780
36,shiyan,32.6475,110.7781,19.04,64,57,3.91,CN,1680362052
37,carnarvon,-24.8667,113.6333,24.87,73,91,5.99,AU,1680361915
38,jacareacanga,-6.2222,-57.7528,26.17,91,97,1.5,BR,1680362052
39,new norfolk,-42.7826,147.0587,12.06,70,99,0.45,AU,1680362052
40,mount isa,-20.7333,139.5,25.87,36,98,3.6,AU,1680362052
41,port alfred,-33.5906,26.891,22.88,76,0,1.79,ZA,1680362053
42,sechura,-5.5569,-80.8222,28.23,64,90,2.09,PE,1680362053
43,lompoc,34.6391,-120.4579,9.77,86,0,4.02,US,1680362053
44,busselton,-33.65,115.3333,17.01,78,10,3.89,AU,1680362053
45,hobart,-42.8794,147.3294,12.25,79,99,5.66,AU,1680362053
46,sinnamary,5.3833,-52.95,27.91,66,29,5.43,GF,1680362054
47,yamandu,7.9362,-11.4928,36.11,35,6,1.11,SL,1680362054
48,san patricio,28.017,-97.5169,26.71,76,98,2.67,US,1680362054
49,vila franca do campo,37.7167,-25.4333,19.23,68,100,4.32,PT,1680362054
50,vila velha,-20.3297,-40.2925,33.86,61,20,3.6,BR,1680361834
51,talnakh,69.4865,88.3972,-9.33,94,100,8.14,RU,1680362054
52,sibu,2.3,111.8167,23.74,94,100,0.81,MY,1680362055
53,etampes,48.4333,2.15,15.74,63,79,7.44,FR,1680362055
54,humpolec,49.5415,15.3593,12.12,84,99,5.53,CZ,1680362055
55,georgetown,5.4112,100.3354,29.97,66,20,1.54,MY,1680361759
56,tezu,27.9167,96.1667,18.87,89,100,0.71,IN,1680362055
57,rawson,-43.3002,-65.1023,23.11,28,72,8.88,AR,1680362055
58,tursunzoda,38.5144,68.2333,18.37,48,30,3.34,TJ,1680362056
59,lufilufi,-13.8745,-171.5986,23.88,77,93,3.79,WS,1680362056
60,buala,-8.145,159.5921,26.45,78,100,0.52,SB,1680362056
61,provideniya,64.3833,-173.3,-3.96,96,98,4.42,RU,1680361759
62,tazovskiy,67.4667,78.7,-1.26,95,100,8.96,RU,1680362056
63,sturgis,41.7992,-85.4192,3.14,100,100,5.66,US,1680362056
64,kruisfontein,-34.0033,24.7314,23.82,45,3,5.71,ZA,1680362057
65,strezhevoy,60.7333,77.5889,-0.13,75,100,7.27,RU,1680362057
66,matamoros,25.5333,-103.25,21.73,18,75,0.0,MX,1680362057
67,bredasdorp,-34.5322,20.0403,21.33,61,0,5.9,ZA,1680362058
68,mahebourg,-20.4081,57.7,27.16,74,20,3.09,MU,1680362058
69,puerto ayora,-0.7393,-90.3518,29.98,89,72,3.13,EC,1680362058
70,hamilton,39.1834,-84.5333,17.69,46,40,14.92,US,1680361835
71,ballina,-28.8667,153.5667,15.99,82,10,1.72,AU,1680362058
72,vao,-22.6667,167.4833,25.45,84,24,4.7,NC,1680362058
73,makakilo city,21.3469,-158.0858,22.6,88,75,0.0,US,1680362059
74,senanga,-16.1167,23.2667,25.31,66,88,2.22,ZM,1680362059
75,estelle,29.8458,-90.1067,25.56,87,75,3.09,US,1680362059
76,ambilobe,-13.2,49.05,25.37,90,100,0.23,MG,1680362059
77,harper,4.375,-7.7169,29.48,68,25,4.05,LR,1680362060
78,huangyan,28.6478,121.2594,16.1,87,7,0.36,CN,1680362060
79,baykit,61.67,96.37,-16.96,99,96,0.61,RU,1680362060
80,verkhnevilyuysk,63.4453,120.3167,-25.9,100,19,1.91,RU,1680362060
81,east angus,45.4834,-71.6658,2.35,93,100,4.63,CA,1680362060
82,mar del plata,-38.0023,-57.5575,19.35,58,75,2.06,AR,1680361964
83,talcahuano,-36.7167,-73.1167,18.82,39,0,3.6,CL,1680362061
84,atuona,-9.8,-139.0333,26.86,78,76,6.48,PF,1680362061
85,port hardy,50.6996,-127.4199,2.1,100,100,3.09,CA,1680361855
86,bluff,-46.6,168.3333,13.22,87,25,7.59,NZ,1680362061
87,cabo san lucas,22.8909,-109.9124,22.51,70,40,1.03,MX,1680361867
88,constitucion,-35.3333,-72.4167,20.65,39,96,5.3,CL,1680362061
89,alofi,-19.0595,-169.9187,26.63,79,17,7.88,NU,1680362062
90,souillac,-20.5167,57.5167,27.21,74,20,3.09,MU,1680362062
91,castro,-24.7911,-50.0119,24.57,62,64,2.66,BR,1680361797
92,havelock,34.8791,-76.9013,23.99,84,100,7.15,US,1680362062
93,tucurui,-3.7661,-49.6725,28.17,74,100,1.0,BR,1680362046
94,aljezur,37.3191,-8.8033,19.46,71,94,5.3,PT,1680362062
95,palmer,42.1584,-72.3287,12.83,98,100,4.73,US,1680361994
96,sao filipe,14.8961,-24.4956,26.66,59,0,3.44,CV,1680362062
97,mbandaka,0.0487,18.2603,30.19,52,76,0.46,CD,1680362062
98,cape town,-33.9258,18.4232,22.71,67,0,5.36,ZA,1680361966
99,palatka,29.6486,-81.6376,27.27,55,60,0.89,US,1680362063
100,arraial do cabo,-22.9661,-42.0278,28.92,65,40,4.12,BR,1680362063
101,goderich,43.7501,-81.7165,7.17,71,41,6.58,CA,1680362063
102,hambantota,6.1241,81.1185,27.19,94,40,0.51,LK,1680362063
103,karratha,-20.7377,116.8463,28.38,69,28,2.37,AU,1680362063
104,east london,-33.0153,27.9116,22.57,70,3,5.31,ZA,1680361769
105,narsaq,60.9167,-46.05,-0.88,56,91,0.97,GL,1680362063
106,qaanaaq,77.484,-69.3632,-22.98,71,6,2.09,GL,1680362064
107,tuktoyaktuk,69.4541,-133.0374,-26.36,95,6,4.17,CA,1680362064
108,dongsheng,39.8161,109.9776,13.62,39,100,13.01,CN,1680362064
109,mogadishu,2.0371,45.3438,28.16,72,29,6.68,SO,1680362064
110,sikasso,10.9167,-7.0,39.59,8,50,3.25,ML,1680362064
111,veraval,20.9,70.3667,25.17,76,37,4.88,IN,1680362064
112,ponta do sol,32.6667,-17.1,25.95,67,3,4.13,PT,1680362064
113,fillmore,43.6666,-92.1002,-0.92,80,40,10.29,US,1680362064
114,penzance,50.1186,-5.5371,11.62,82,40,10.29,GB,1680362065
115,nyurba,63.2842,118.3319,-25.38,100,57,1.79,RU,1680362065
116,sitka,57.0531,-135.33,1.94,80,75,3.09,US,1680362065
117,angoche,-16.2325,39.9086,26.19,76,88,5.39,MZ,1680362065
118,esperance,-33.8667,121.9,18.57,77,99,5.03,AU,1680362065
119,fort nelson,58.8053,-122.7002,-7.81,83,98,0.45,CA,1680362066
120,washington,47.5001,-120.5015,3.97,77,100,1.94,US,1680361792
121,waki,34.0667,134.15,14.45,58,100,1.07,JP,1680361979
122,upernavik,72.7868,-56.1549,-28.03,95,56,5.34,GL,1680362066
123,saint-francois,46.4154,3.9054,10.93,79,75,5.14,FR,1680362066
124,bambous virieux,-20.3428,57.7575,27.14,74,20,3.09,MU,1680362066
125,havre-saint-pierre,50.2334,-63.5986,0.0,78,86,5.21,CA,1680362066
126,luderitz,-26.6481,15.1594,19.63,73,4,2.55,NA,1680362066
127,vangaindrano,-23.35,47.6,24.74,89,98,1.56,MG,1680361835
128,korla,41.7597,86.1469,10.68,13,0,4.63,CN,1680362067
129,cidreira,-30.1811,-50.2056,18.8,66,62,7.44,BR,1680361839
130,avarua,-21.2078,-159.775,23.03,100,75,0.51,CK,1680362067
131,katsuura,35.1333,140.3,15.46,74,100,5.19,JP,1680362067
132,kerrobert,51.9168,-109.1348,-6.91,96,93,1.24,CA,1680362067
133,ancud,-41.8697,-73.8203,14.11,87,92,3.24,CL,1680362067
134,solnechnyy,50.7214,136.6319,-1.46,85,11,1.95,RU,1680362067
135,kurchum,48.5722,83.6542,-4.35,66,0,4.95,KZ,1680362067
136,sao domingos do prata,-19.865,-42.9683,30.25,43,35,1.46,BR,1680362068
137,saint-pierre,-21.3393,55.4781,27.82,74,0,5.14,RE,1680362068
138,kearney,40.6995,-99.0815,1.31,47,0,4.12,US,1680361954
139,krasnokamensk,50.0979,118.0369,1.86,49,40,3.08,RU,1680362068
140,ocampo,21.65,-101.5,18.26,46,53,1.7,MX,1680362068
141,beringovskiy,63.05,179.3167,-7.82,79,60,9.7,RU,1680362069
142,ribeira grande,38.5167,-28.7,18.22,88,75,5.36,PT,1680362069
143,lagoa,39.05,-27.9833,16.09,88,100,9.5,PT,1680361772
144,cherskiy,68.75,161.3,-31.44,100,98,1.49,RU,1680361814
145,laguna,38.421,-121.4238,9.05,86,40,0.89,US,1680362069
146,mazagao,-0.115,-51.2894,29.03,70,81,1.85,BR,1680362069
147,fujin,47.26,132.0322,9.07,36,99,3.75,CN,1680362069
148,indianola,41.3581,-93.5574,3.27,63,100,6.71,US,1680362070
149,neiafu,-18.65,-173.9833,25.38,88,40,0.0,TO,1680362070
150,cap malheureux,-19.9842,57.6142,26.93,70,7,2.24,MU,1680362070
151,krasnoselkup,65.7,82.4667,-0.61,85,100,13.19,RU,1680361832
152,coquimbo,-29.9533,-71.3436,16.85,94,100,1.54,CL,1680362044
153,allen,41.0706,-85.0144,5.66,83,96,6.26,US,1680361924
154,buchanan,5.8808,-10.0467,29.97,66,56,4.94,LR,1680362070
155,baglung,28.2719,83.5898,12.8,81,63,1.65,NP,1680362070
156,leninskoye,41.7589,69.3864,16.03,54,84,2.55,KZ,1680362071
157,teya,60.3778,92.6267,-14.45,97,99,1.56,RU,1680362071
158,vista hermosa,19.5167,-99.2167,20.31,45,0,2.06,MX,1680362071
159,mega,4.05,38.3,22.3,50,73,3.39,ET,1680362071
160,fairbanks,64.8378,-147.7164,-11.81,75,75,2.06,US,1680361804
161,dharchula,29.85,80.5333,13.43,83,89,0.94,IN,1680362071
162,sola,-13.8833,167.55,28.1,74,42,3.65,VU,1680362071
163,zyryanka,65.75,150.85,-18.64,96,100,3.67,RU,1680362071
164,ahipara,-35.1667,173.1667,17.88,93,100,0.92,NZ,1680362072
165,pevek,69.7008,170.3133,-20.53,98,100,8.0,RU,1680361838
166,college,64.8569,-147.8028,-11.82,73,100,2.06,US,1680362072
167,mana,5.6592,-53.7767,27.78,69,35,5.85,GF,1680362072
168,castlegar,49.2998,-117.6689,5.16,97,100,0.65,CA,1680361782
169,sompeta,18.9333,84.6,26.97,75,97,3.85,IN,1680362072
170,motygino,58.1831,94.7592,-17.76,96,77,0.49,RU,1680362073
171,russell,32.3502,-85.1999,24.65,78,0,2.06,US,1680362073
172,cayenne,4.9333,-52.3333,24.02,88,75,1.54,GF,1680362073
173,rocha,-34.4833,-54.3333,21.73,41,59,6.21,UY,1680362073
174,turayf,31.6725,38.6637,15.14,30,0,4.62,SA,1680362073
175,quatre cocos,-20.2078,57.7625,27.06,78,25,5.54,MU,1680362073
176,vernon,50.2581,-119.2691,3.67,80,100,0.45,CA,1680362073
177,charters towers,-20.1,146.2667,23.47,69,32,0.85,AU,1680362073
178,kloulklubed,7.0419,134.2556,25.28,68,99,0.36,PW,1680362073
179,fontanafredda,45.9736,12.5691,18.86,54,61,0.45,IT,1680362073
180,tual,-5.6667,132.75,28.45,73,100,1.42,ID,1680362074
181,zinacantan,16.75,-92.7,17.25,48,62,1.08,MX,1680362074
182,port hedland,-20.3167,118.5667,28.03,78,66,3.09,AU,1680362074
183,gamba,-2.65,10.0,24.62,86,100,2.05,GA,1680362074
184,hithadhoo,-0.6,73.0833,28.36,69,69,2.38,MV,1680361776
185,komsomolskiy,40.4272,71.7189,18.4,39,88,2.06,UZ,1680362074
186,jimo,36.3897,120.4622,12.03,25,0,0.68,CN,1680362074
187,bayan,46.0833,127.4,12.52,27,100,2.81,CN,1680362074
188,thompson,55.7435,-97.8558,-16.25,93,81,2.93,CA,1680362074
189,muros,42.7762,-9.0603,17.69,57,62,4.55,ES,1680362074
190,ostersund,63.1792,14.6357,1.25,44,0,13.86,SE,1680362074
191,husavik,66.0449,-17.3389,2.62,97,99,1.05,IS,1680361860
192,lebu,-37.6167,-73.65,16.93,63,33,3.92,CL,1680362075
193,chara,56.9064,118.2631,-14.73,79,83,3.01,RU,1680361853
194,amnat charoen,15.9167,104.75,30.68,46,45,3.13,TH,1680362075
195,sampit,-2.5333,112.95,22.99,97,98,1.05,ID,1680362075
196,yellowknife,62.456,-114.3525,-16.91,64,100,7.6,CA,1680362075
197,saint-augustin,51.226,-58.6502,0.99,61,91,4.93,CA,1680362075
198,kimbe,-5.5502,150.1429,24.48,94,100,2.4,PG,1680362075
199,luorong,24.4058,109.6086,22.83,86,83,1.0,CN,1680362075
200,pokhara,28.2333,83.9833,13.93,75,42,2.15,NP,1680362075
201,kahului,20.8947,-156.47,22.69,87,0,2.06,US,1680361791
202,tasiilaq,65.6145,-37.6368,-0.91,78,99,1.16,GL,1680362075
203,machachi,-0.5,-78.5667,14.72,61,86,0.44,EC,1680362075
204,marsa matruh,31.3525,27.2453,19.45,47,4,3.2,EG,1680362075
205,coahuayana,18.7333,-103.6833,28.1,23,50,0.32,MX,1680362076
206,salalah,17.0151,54.0924,28.05,78,75,4.63,OM,1680362076
207,la ronge,55.1001,-105.2842,-7.31,94,100,4.66,CA,1680361868
208,tuatapere,-46.1333,167.6833,11.88,96,57,4.55,NZ,1680362076
209,elko,41.0002,-115.5012,1.79,81,100,1.44,US,1680361981
210,hurghada,27.2574,33.8129,20.99,41,0,6.22,EG,1680361950
211,maha sarakham,16.3333,103.6667,32.73,45,41,4.38,TH,1680362076
212,huanren,41.2647,125.3667,12.02,35,10,0.44,CN,1680362076
213,namibe,-15.1961,12.1522,26.35,73,75,4.69,AO,1680362076
214,cardston,49.2,-113.3019,0.72,65,100,3.54,CA,1680362076
215,hervey bay,-25.2986,152.8535,22.75,53,100,1.35,AU,1680362076
216,lavrentiya,65.5833,-171.0,-3.6,97,100,1.48,RU,1680362076
217,tonj,7.2737,28.6822,36.09,18,96,3.24,SS,1680362076
218,okhotsk,59.3833,143.3,-4.17,97,100,1.36,RU,1680361807
219,markova,48.6758,24.4138,11.2,68,94,0.51,UA,1680362076
220,mindelo,16.8901,-24.9804,32.75,21,0,9.77,CV,1680362077
221,dubbo,-32.25,148.6167,12.07,71,40,3.09,AU,1680362077
222,ondjiva,-17.0667,15.7333,29.14,38,79,3.23,AO,1680362077
223,saint anthony,45.0205,-93.218,-1.3,75,0,5.14,US,1680362077
224,pitimbu,-7.4706,-34.8086,31.33,64,79,4.56,BR,1680361897
225,ongandjera,-17.8833,15.0667,30.8,29,10,2.25,NA,1680362077
226,ambon,-3.6954,128.1814,25.08,94,40,3.09,ID,1680362077
227,kandrian,-6.2167,149.55,24.27,90,100,2.27,PG,1680362077
228,nabire,-3.3667,135.4833,24.68,93,100,1.16,ID,1680362077
229,rio verde de mato grosso,-18.9181,-54.8442,29.54,63,27,1.99,BR,1680362077
230,marsh harbour,26.5412,-77.0636,24.54,76,41,8.18,BS,1680361857
231,camacha,33.0833,-16.3333,18.68,73,40,6.69,PT,1680362077
232,aklavik,68.2191,-135.0107,-27.0,99,95,1.05,CA,1680362077
233,amapa,1.0,-52.0,28.93,60,93,2.1,BR,1680362077
234,luan,46.3592,6.9759,6.24,66,94,2.24,CH,1680362078
235,bondo,3.8146,23.6866,34.96,26,90,0.78,CD,1680362078
236,asilah,35.465,-6.0348,18.98,66,48,4.62,MA,1680362078
237,abha,18.2164,42.5053,18.14,68,40,4.12,SA,1680362078
238,belmonte,-15.8631,-38.8828,29.7,61,17,3.97,BR,1680362078
239,kodiak,57.79,-152.4072,0.73,47,0,11.83,US,1680362078
240,san policarpo,12.1791,125.5072,26.77,78,68,2.15,PH,1680362078
241,olafsvik,64.8945,-23.7142,4.14,82,95,6.56,IS,1680362078
242,la candelaria,9.6855,-63.4038,30.71,50,81,5.73,VE,1680362078
243,bathsheba,13.2167,-59.5167,28.34,69,75,8.23,BB,1680362078
244,tonstad,58.6626,6.7169,5.67,66,5,2.34,NO,1680362079
245,kenora,49.8167,-94.4337,-6.79,37,30,2.24,CA,1680362079
246,bengkulu,-3.8004,102.2655,24.19,89,100,2.11,ID,1680362079
247,saint george,37.1041,-113.5841,8.02,57,0,2.06,US,1680362079
248,santa fe,-31.6333,-60.7,21.83,46,0,4.02,AR,1680362079
249,vardo,70.3705,31.1107,-2.01,93,100,13.89,NO,1680362079
250,dannenberg,53.0967,11.09,6.19,94,100,6.13,DE,1680362079
251,bonavista,48.6499,-53.1147,-0.26,87,41,2.69,CA,1680362079
252,zhigansk,66.7697,123.3711,-23.71,100,96,3.12,RU,1680362079
253,natal,-5.795,-35.2094,30.36,66,75,5.66,BR,1680362035
254,kuybyshevo,47.8123,38.9073,9.6,58,36,2.97,RU,1680362079
255,damavand,35.7178,52.065,1.45,39,43,4.17,IR,1680362079
256,antalaha,-14.9003,50.2788,26.56,80,99,3.61,MG,1680361895
257,panguna,-6.3164,155.4848,19.76,98,65,0.41,PG,1680362079
258,zalesovo,53.9939,84.7431,-10.67,83,9,2.39,RU,1680362080
259,nantucket,41.2835,-70.0995,11.08,98,100,9.77,US,1680362080
260,yaan,7.3833,8.5667,36.19,29,89,3.47,NG,1680362080
261,half moon bay,37.4636,-122.4286,10.17,82,0,0.0,US,1680362005
262,waingapu,-9.6567,120.2641,26.0,83,100,0.48,ID,1680362080
263,fuerte olimpo,-21.0415,-57.8738,33.8,44,49,1.26,PY,1680362080
264,mount gambier,-37.8333,140.7667,8.91,84,16,0.87,AU,1680362080
265,tessalit,20.1986,1.0114,34.42,4,0,5.83,ML,1680362080
266,boende,-0.2167,20.8667,29.91,46,81,0.58,CD,1680362080
267,kungurtug,50.5994,97.5228,-15.31,91,100,1.08,RU,1680362080
268,tongzi,28.7829,105.0877,20.91,72,99,1.4,CN,1680362080
269,kamenka,51.3223,42.7678,9.09,54,57,4.65,RU,1680362081
270,ilo,-17.6394,-71.3375,23.98,78,91,2.09,PE,1680362081
271,vanimo,-2.6741,141.3028,25.68,85,49,1.32,PG,1680362081
272,codrington,-38.2667,141.9667,10.57,74,14,1.04,AU,1680362081
273,inirida,3.8653,-67.9239,23.5,97,100,0.56,CO,1680362081
274,santo tomas,14.1079,121.1414,28.14,84,15,0.9,PH,1680362081
275,amalapuram,16.5833,82.0167,26.96,80,76,2.54,IN,1680362081
276,cabedelo,-6.9811,-34.8339,31.37,64,86,5.19,BR,1680362081
277,pirovskoye,57.6267,92.2658,-13.82,91,45,0.57,RU,1680362081
278,kobyzhcha,50.8285,31.5044,12.23,60,98,5.25,UA,1680362081
279,udachnyy,66.4167,112.4,-14.75,65,89,6.13,RU,1680362081
280,chokurdakh,70.6333,147.9167,-33.44,100,93,2.78,RU,1680361795
281,huarmey,-10.0681,-78.1522,25.92,79,72,3.87,PE,1680362081
282,northam,51.0333,-4.2167,12.03,90,85,7.35,GB,1680362082
283,avon,41.4517,-82.0354,17.83,54,75,11.83,US,1680362082
284,lardos,36.0942,28.0157,18.3,70,72,4.79,GR,1680362082
285,tura,25.5198,90.2201,18.23,86,15,1.47,IN,1680362082
286,portland,45.5234,-122.6762,5.45,93,100,2.68,US,1680361246
287,north platte,41.1239,-100.7654,4.1,67,0,2.06,US,1680362082
288,kaniama,-7.5667,24.1833,23.5,82,99,0.92,CD,1680362082
289,bima,-8.4667,118.7167,24.22,94,100,1.68,ID,1680361884
290,klaksvik,62.2266,-6.589,7.51,86,100,10.61,FO,1680361838
291,usinsk,65.9939,57.5281,0.64,99,100,6.5,RU,1680362082
292,alakurtti,66.9672,30.3491,-2.42,84,84,4.75,RU,1680362082
293,sorong,-0.8833,131.25,26.9,81,98,0.39,ID,1680362082
294,severo-yeniseyskiy,60.3725,93.0408,-16.24,95,91,1.93,RU,1680362082
295,mopipi,-21.1833,24.8833,30.85,31,39,1.72,BW,1680362082
296,nicolas bravo,18.45,-88.9167,28.74,56,23,3.94,MX,1680362082
297,cam ranh,11.9214,109.1591,26.98,74,20,0.0,VN,1680362083
298,moerai,-22.4333,-151.3333,26.05,80,38,5.81,PF,1680362083
299,dobroye,52.8678,39.8109,5.98,97,100,4.9,RU,1680362083
300,tanout,14.9709,8.8879,33.72,7,90,7.14,NE,1680362083
301,siilinjarvi,63.0833,27.6667,1.01,34,27,6.69,FI,1680362083
302,biryusinsk,55.9634,97.8235,-9.87,92,100,1.38,RU,1680362083
303,teguise,29.0605,-13.564,25.12,39,20,10.29,ES,1680362083
304,kitui,-1.367,38.0106,26.62,45,28,4.32,KE,1680362083
305,pontes e lacerda,-15.2261,-59.3353,29.76,64,52,1.48,BR,1680362083
306,iquique,-20.2208,-70.1431,27.02,69,68,2.28,CL,1680362083
307,imbituba,-28.24,-48.6703,25.48,53,65,8.27,BR,1680362083
308,akcaabat,41.0212,39.5715,9.93,76,0,5.66,TR,1680362083
309,clyde river,70.4692,-68.5914,-22.22,95,42,2.05,CA,1680362083
310,mantua,45.1667,10.7833,21.58,39,0,3.21,IT,1680362083
311,xiongzhou,25.1167,114.3,19.6,95,100,0.59,CN,1680362084
312,sambava,-14.2667,50.1667,26.01,86,100,3.34,MG,1680362084
313,acarau,-2.8856,-40.12,28.57,72,82,3.63,BR,1680362084
314,batagay,67.6333,134.6333,-29.53,100,88,0.16,RU,1680362084
315,weilheim,47.8333,11.15,9.69,63,100,6.38,DE,1680362084
316,yangliuqing,39.1375,116.9997,13.97,35,2,3.4,CN,1680362084
317,yamada,39.4667,141.95,5.37,80,1,2.35,JP,1680362084
318,abu dhabi,24.4667,54.3667,24.06,79,0,6.17,AE,1680361935
319,osa,57.2829,55.4567,2.22,93,100,5.56,RU,1680362084
320,severo-kurilsk,50.6789,156.125,-0.39,81,7,5.78,RU,1680362084
321,vestmannaeyjar,63.4427,-20.2734,5.55,81,75,12.86,IS,1680362084
322,bukachacha,52.9833,116.9167,-4.06,62,100,2.81,RU,1680362084
323,dunmore town,25.5,-76.65,24.36,78,27,8.91,BS,1680362084
324,salinopolis,-0.6136,-47.3561,26.82,81,95,2.91,BR,1680362084
325,del rio,29.3627,-100.8968,19.57,41,100,3.09,US,1680362085
326,gawler,-34.6,138.7333,12.9,79,0,4.31,AU,1680362085
327,tiksi,71.6872,128.8694,-18.34,85,50,8.86,RU,1680362085
328,thinadhoo,0.5333,72.9333,28.18,73,99,2.11,MV,1680362085
329,hasaki,35.7333,140.8333,14.22,54,25,4.65,JP,1680362085
330,kigoma,-4.8769,29.6267,23.78,76,69,2.57,TZ,1680362085
331,khatanga,71.9667,102.5,-7.59,93,100,9.6,RU,1680362085
332,ramygala,55.5167,24.3,5.5,95,100,5.74,LT,1680362085
333,grand gaube,-20.0064,57.6608,27.22,70,8,2.24,MU,1680362085
334,mehamn,71.0357,27.8492,-2.05,80,100,13.89,NO,1680362085
335,iquitos,-3.7481,-73.2472,28.02,89,75,2.57,PE,1680362085
336,beinamar,8.6698,15.3813,39.87,9,50,0.8,TD,1680362085
337,yumen,40.2833,97.2,5.45,30,70,4.7,CN,1680362085
338,hosanagara,13.9167,75.0667,20.44,81,81,1.5,IN,1680362085
339,saldanha,-33.0117,17.9442,19.06,71,7,6.26,ZA,1680362085
340,isangel,-19.55,169.2667,25.57,86,13,1.87,VU,1680361842
341,mae sai,20.4335,99.8762,26.8,27,23,1.01,TH,1680362085
342,mezen,65.8522,44.24,-6.48,94,86,1.4,RU,1680362085
343,haines junction,60.7522,-137.5108,-5.58,97,100,1.62,CA,1680362086
344,kidal,18.4411,1.4078,34.9,5,7,5.65,ML,1680362086
345,mandasa,18.8667,84.4667,26.72,74,99,3.03,IN,1680362086
346,avera,33.194,-82.5271,22.43,82,100,8.17,US,1680362086
347,abu samrah,35.3029,37.1841,14.61,53,42,6.84,SY,1680362086
348,los llanos de aridane,28.6585,-17.9182,22.86,44,0,5.66,ES,1680362086
349,victoria,22.2855,114.1577,22.19,92,100,4.47,HK,1680362086
350,pandamatenga,-18.5278,25.627,27.09,44,87,3.58,BW,1680362086
351,lessines,50.711,3.8358,9.92,90,75,7.2,BE,1680362086
352,kautokeino,69.0125,23.0412,-5.74,80,74,5.43,NO,1680362086
353,argentan,48.75,-0.0167,10.01,83,100,6.13,FR,1680362086
354,kuala terengganu,5.3302,103.1408,26.37,82,59,3.06,MY,1680362086
355,paita,-5.0892,-81.1144,27.77,70,100,1.32,PE,1680362086
356,ilulissat,69.2167,-51.1,-11.99,61,0,1.54,GL,1680362086
357,sao joao da barra,-21.6403,-41.0511,33.05,60,49,0.51,BR,1680362086
358,crateus,-5.1783,-40.6775,31.69,44,63,1.36,BR,1680362086
359,rafai,4.95,23.9167,35.11,23,90,0.59,CF,1680361875
360,broome,42.2506,-75.833,17.33,71,0,8.23,US,1680362086
361,saint pete beach,27.7253,-82.7412,28.47,76,0,4.63,US,1680362086
362,san quintin,30.4833,-115.95,13.43,77,0,2.88,MX,1680362086
363,tautira,-17.7333,-149.15,28.01,74,22,4.4,PF,1680362086
364,mnogovershinnyy,53.9353,139.9242,-3.66,86,22,2.14,RU,1680362087
365,kaputa,-8.4689,29.6619,21.45,83,100,1.03,ZM,1680362087
366,pangnirtung,66.1451,-65.7125,-12.12,74,100,0.52,CA,1680361875
367,mitsamiouli,-11.3847,43.2844,28.3,77,100,4.48,KM,1680361838
368,nanortalik,60.1432,-45.2371,-2.27,78,87,4.13,GL,1680362087
369,liusha,27.2098,108.59,15.27,93,51,1.43,CN,1680362087
370,bereda,43.2686,-7.5406,14.52,58,76,3.02,ES,1680362087
371,touros,-5.1989,-35.4608,30.27,62,87,4.96,BR,1680362046
372,minab,27.1467,57.0801,25.35,51,21,4.43,IR,1680362087
373,hovd,48.0056,91.6419,-11.78,34,100,6.35,MN,1680362087
374,oriximina,-1.7656,-55.8661,26.65,80,97,2.1,BR,1680362087
375,kropotkin,45.4375,40.5756,11.93,51,13,1.98,RU,1680362087
376,boguchar,49.9358,40.545,7.8,68,94,3.99,RU,1680362087
377,asyut,27.181,31.1837,24.35,17,0,6.79,EG,1680362087
378,asau,46.4333,26.4,10.51,88,100,1.12,RO,1680362087
379,vilhena,-12.7406,-60.1458,29.32,53,91,1.34,BR,1680361902
380,sorland,67.667,12.6934,2.92,54,97,7.67,NO,1680362087
381,the valley,18.217,-63.0578,27.28,70,5,9.89,AI,1680361817
382,sri aman,1.2376,111.4621,24.23,86,100,0.58,MY,1680362087
383,nisia floresta,-6.0911,-35.2086,30.45,54,99,4.01,BR,1680362087
384,santa barbara,34.7333,-120.0343,11.57,100,100,0.0,US,1680361914
385,uttaradit,17.6667,100.5,26.68,33,28,1.2,TH,1680362088
386,dicabisagan,17.0818,122.4157,24.63,85,81,2.09,PH,1680362088
387,uitenhage,-33.7576,25.3971,24.67,42,3,5.16,ZA,1680362088
388,santa isabel,-23.3156,-46.2214,28.61,52,0,2.23,BR,1680362088
389,rio gallegos,-51.6226,-69.2181,9.03,71,75,9.26,AR,1680362088
390,auki,-8.7676,160.7034,25.26,85,91,0.47,SB,1680362088
391,sobolevo,54.4299,31.8996,7.22,93,100,2.86,RU,1680362088
392,sioux lookout,50.1001,-91.917,-6.09,72,32,1.15,CA,1680362088
393,parabel,58.6978,81.4825,-4.18,79,100,4.77,RU,1680362088
394,sistranda,63.7256,8.834,3.98,63,28,7.29,NO,1680361842
395,manzanillo,20.3433,-77.1167,29.73,43,0,3.18,CU,1680362088
396,port lincoln,-34.7333,135.8667,14.78,64,26,5.88,AU,1680362088
397,minas,-34.3759,-55.2377,21.51,41,62,4.6,UY,1680362088
398,saint simons,31.1352,-81.3901,27.23,65,0,8.75,US,1680362088
399,compostela,7.6731,126.0889,23.51,96,100,0.36,PH,1680362088
400,yerbogachen,61.2767,108.0108,-25.06,99,36,0.88,RU,1680362088
401,srednekolymsk,67.45,153.6833,-28.3,100,100,1.4,RU,1680361821
402,margate,51.3813,1.3862,11.06,86,100,3.58,GB,1680362088
403,huesca,42.1362,-0.4087,15.38,51,40,10.29,ES,1680362004
404,dingle,10.9995,122.6711,25.26,82,61,2.63,PH,1680362089
405,pasighat,28.0667,95.3333,18.27,89,100,1.5,IN,1680362089
406,nome,64.5011,-165.4064,-3.96,86,100,5.14,US,1680362020
407,japura,-0.3167,102.35,23.55,97,95,1.16,ID,1680362089
408,svetlogorsk,52.6333,29.7333,8.32,94,100,3.09,BY,1680362089
409,chumikan,54.7183,135.315,-3.08,99,86,1.29,RU,1680362089
410,kangaba,11.9333,-8.4167,39.9,5,4,3.7,ML,1680362089
411,kavaratti,10.5669,72.642,27.78,68,9,3.59,IN,1680362089
412,mount pleasant,32.7941,-79.8626,26.08,74,0,7.72,US,1680362089
413,sao joao nepomuceno,-21.54,-43.0106,27.68,68,95,1.58,BR,1680362089
414,midland,31.9974,-102.0779,16.14,19,0,3.09,US,1680362084
415,yantal,56.8471,105.2542,-18.2,100,100,0.96,RU,1680362089
416,kafue,-15.7691,28.1814,22.1,82,100,2.67,ZM,1680362089
417,paka,4.6374,103.4368,25.77,83,52,2.44,MY,1680362089
418,rabo de peixe,37.8,-25.5833,18.73,77,0,4.63,PT,1680362089
419,la peca,-5.6111,-78.435,23.66,72,100,1.17,PE,1680362089
420,hofn,64.2539,-15.2082,5.62,71,2,4.1,IS,1680362089
421,cockburn town,21.4612,-71.1419,26.98,74,20,5.14,TC,1680362090
422,ituiutaba,-18.9689,-49.465,28.44,59,94,2.03,BR,1680362090
423,pacific grove,36.6177,-121.9166,6.82,91,0,2.06,US,1680362090
424,myingyan,21.4667,95.3833,30.37,37,44,7.13,MM,1680362090
425,nuevo progreso,23.1667,-97.95,24.7,80,87,0.45,MX,1680362090
426,zaraza,9.3503,-65.3245,33.14,40,69,4.29,VE,1680362090
427,warragul,-38.1667,145.9333,9.69,85,54,0.78,AU,1680362090
428,kosonsoy,41.2561,71.5508,17.31,26,38,1.05,UZ,1680362090
429,tenabo,20.05,-90.2333,28.0,51,16,3.72,MX,1680362090
430,ucluelet,48.9329,-125.5528,2.27,92,98,2.68,CA,1680362090
431,nombre de dios,23.85,-104.2333,17.75,25,20,0.82,MX,1680362090
432,turukhansk,65.8167,87.9833,-7.65,87,100,10.67,RU,1680362090
433,craig,40.5153,-107.5464,-0.21,80,0,0.0,US,1680361941
434,lazaro cardenas,17.9583,-102.2,27.04,55,0,0.88,MX,1680361972
435,gari,59.4307,62.3497,5.49,73,100,6.14,RU,1680362090
436,itarema,-2.9248,-39.9167,28.77,71,89,3.47,BR,1680362090
437,elliot lake,46.3834,-82.6331,-4.97,92,100,8.51,CA,1680362090
438,san javier,37.8063,-0.8374,30.32,48,0,5.81,ES,1680362090
439,potosi,-19.5836,-65.7531,9.7,47,18,1.77,BO,1680361807
440,dwarka,22.2394,68.9678,25.46,72,40,5.95,IN,1680362091
441,oranjemund,-28.55,16.4333,19.91,72,7,4.87,NA,1680362091
442,lar,26.2039,83.9717,21.61,65,43,2.99,IN,1680362091
443,kichera,55.9375,110.0997,-16.22,86,40,3.25,RU,1680362091
444,makasar,-5.14,119.4221,24.58,88,100,1.95,ID,1680362091
445,diamantino,-14.4086,-56.4461,30.12,61,7,2.28,BR,1680361851
446,kavieng,-2.5744,150.7967,26.88,82,100,5.41,PG,1680362091
447,elk,53.8282,22.3647,5.28,95,100,5.34,PL,1680362091
448,muroto,33.2833,134.15,16.8,64,98,4.46,JP,1680362091
449,sydney mines,46.2367,-60.2177,3.43,82,99,4.02,CA,1680361875
450,itacare,-14.2775,-38.9967,28.71,64,13,3.94,BR,1680362091
451,naryan-mar,67.6713,53.087,-8.09,95,100,2.42,RU,1680362091
452,sao miguel do araguaia,-13.275,-50.1628,30.65,60,4,1.46,BR,1680362091
453,kjollefjord,70.9457,27.3465,-0.97,80,100,13.89,NO,1680362091
454,padang,-0.9492,100.3543,25.03,85,100,1.49,ID,1680362091
455,madras,13.0878,80.2785,29.99,79,20,4.12,IN,1680361828
456,santiago del estero,-27.7951,-64.2615,17.27,47,100,0.81,AR,1680362091
457,vestmanna,62.1564,-7.1664,6.51,87,100,6.69,FO,1680362091
458,iqaluit,63.7506,-68.5145,-12.15,79,100,3.09,CA,1680362091
459,yulara,-25.2406,130.9889,18.26,68,100,4.6,AU,1680361836
460,beloha,-25.1667,45.05,23.9,83,83,5.36,MG,1680362092
461,vila,42.0304,-8.1588,10.94,84,100,1.49,PT,1680362092
462,oktyabrskiy,54.4815,53.471,3.02,93,100,3.22,RU,1680362092
463,ust-ishim,57.6935,71.1665,0.0,75,99,5.13,RU,1680362092
464,turinskaya sloboda,57.6232,64.3858,3.11,69,94,7.26,RU,1680362092
465,derby,52.9228,-1.4766,10.54,71,75,4.63,GB,1680362092
466,kununurra,-15.7667,128.7333,25.99,83,77,1.03,AU,1680362092
467,maningrida,-12.0667,134.2667,26.1,77,21,3.01,AU,1680362092
468,havoysund,70.9963,24.6622,-0.87,69,100,10.01,NO,1680362092
469,touba,8.2833,-7.6833,36.8,20,33,3.26,CI,1680362092
470,zhangye,38.9342,100.4517,8.6,26,100,5.99,CN,1680362092
471,sabang,5.8933,95.3214,28.67,68,94,0.85,ID,1680362092
472,rock springs,41.5875,-109.2029,0.03,59,75,0.0,US,1680362092
473,ostroda,53.6967,19.9649,5.68,93,100,4.65,PL,1680362092
474,nouadhibou,20.931,-17.0347,36.99,12,0,6.69,MR,1680362092
475,ertil,51.8406,40.8056,4.44,95,100,5.56,RU,1680362092
476,san juan,-31.5375,-68.5364,21.1,31,52,3.92,AR,1680361968
477,deputatskiy,69.3,139.9,-32.14,99,87,2.3,RU,1680362092
478,birao,10.2849,22.7882,37.12,7,73,4.44,CF,1680362092
479,nacimiento,-37.5,-72.6667,22.43,27,34,2.1,CL,1680362093
480,ixtapa,20.7,-105.2,20.57,52,75,3.09,MX,1680362093
481,nicoya,10.1483,-85.452,30.13,49,19,5.8,CR,1680362093
482,temir,49.1414,57.13,11.99,24,8,8.5,KZ,1680362093
483,sao jose da coroa grande,-8.8978,-35.1478,28.76,64,46,3.06,BR,1680362093
484,ekhabi,53.5102,142.9671,-1.83,93,55,3.91,RU,1680362093
485,ewa beach,21.3156,-158.0072,23.38,88,75,0.0,US,1680362093
486,amahai,-3.3333,128.9167,25.78,87,97,2.08,ID,1680362093
487,acapulco,16.8634,-99.8901,27.9,54,0,2.57,MX,1680362059
488,pilot butte,50.4668,-104.4178,-6.85,94,22,4.03,CA,1680362093
489,katherine,-14.4667,132.2667,25.18,69,99,2.06,AU,1680362093
490,adrar,20.5022,-10.0711,35.89,4,0,6.96,MR,1680362093
491,iwaki,37.05,140.8833,4.87,74,5,1.81,JP,1680362093
492,port blair,11.6667,92.75,27.53,67,59,2.13,IN,1680362005
493,egvekinot,66.3167,-179.1667,-11.21,91,100,4.87,RU,1680362093
494,colares,38.7992,-9.4469,18.83,84,75,6.26,PT,1680362093
495,aswan,24.0934,32.907,26.33,13,3,5.46,EG,1680362093
496,la reforma,25.0833,-108.05,21.96,33,100,3.71,MX,1680362093
497,hohhot,40.8106,111.6522,14.42,40,73,6.53,CN,1680362093
498,prince george,53.9166,-122.753,-0.42,82,99,0.89,CA,1680361978
499,mandalgovi,45.7625,106.2708,-8.05,87,100,11.2,MN,1680362093
500,stadthagen,52.3233,9.2031,11.14,91,100,1.54,DE,1680362094
501,san ignacio,17.1561,-89.0714,27.08,74,0,3.09,BZ,1680362094
502,tomatlan,19.9333,-105.25,26.1,28,100,1.12,MX,1680362094
503,nizwa,22.9333,57.5333,30.28,19,31,2.4,OM,1680362094
504,waddan,29.1614,16.139,28.68,8,0,0.64,LY,1680362094
505,manggar,-2.8833,108.2667,26.54,80,85,0.39,ID,1680362094
506,pak phanang,8.3511,100.202,26.89,74,60,2.14,TH,1680362094
507,boa viagem,-5.1275,-39.7322,31.78,44,58,1.83,BR,1680362094
508,mtimbira,-8.7833,36.35,25.71,86,88,1.8,TZ,1680362094
509,moose factory,51.2585,-80.6094,-12.41,89,100,4.9,CA,1680362094
510,peace river,56.2501,-117.286,-0.52,97,100,0.76,CA,1680361968
511,krasnoarmeysk,51.0239,45.6969,9.14,52,100,2.36,RU,1680362094
512,tabuk,17.4189,121.4443,23.26,92,7,0.59,PH,1680362094
513,saskylakh,71.9167,114.0833,-11.14,90,100,7.75,RU,1680362094
514,swan hill,-35.3378,143.5544,11.36,63,0,3.5,AU,1680362094
515,copiapo,-27.3667,-70.3333,19.83,58,11,2.51,CL,1680361844
516,octeville,49.6261,-1.6435,11.27,82,100,8.75,FR,1680362094
517,malpe,13.35,74.7167,27.61,75,23,3.43,IN,1680362094
518,kinkala,-4.3614,14.7644,26.06,84,86,1.7,CG,1680362094
519,vizinga,61.0749,50.1031,1.71,98,100,4.01,RU,1680362094
520,necochea,-38.5473,-58.7368,16.02,51,100,4.28,AR,1680362095
521,amboasary,-25.0333,46.3833,24.61,87,100,4.74,MG,1680362095
522,samarai,-10.6167,150.6667,27.46,79,100,3.8,PG,1680361826
523,ulagan,50.6321,87.9563,-14.42,94,96,1.93,RU,1680362095
524,staritsa,56.5075,34.9354,3.7,95,100,2.83,RU,1680362095
525,smithers,54.7804,-127.1743,-2.17,91,71,0.74,CA,1680361817
526,camocim,-2.9022,-40.8411,27.92,78,95,2.89,BR,1680362095
527,ciudad bolivar,8.1222,-63.5497,30.81,47,94,5.22,VE,1680362095
528,lubumbashi,-11.6609,27.4794,17.98,95,100,2.35,CD,1680362095
529,sambir,49.5183,23.1975,11.04,82,98,3.0,UA,1680362095
530,jiujiang,29.7333,115.9833,18.42,64,0,1.66,CN,1680362095
531,guarapari,-20.6667,-40.4975,33.83,57,34,3.62,BR,1680362095
532,finschhafen,-6.6024,147.8681,25.09,88,100,4.87,PG,1680362095
533,folldal,62.1325,9.9968,-1.61,66,2,0.49,NO,1680362095
534,poya,-21.35,165.15,24.34,91,18,0.74,NC,1680362095
535,paamiut,61.994,-49.6678,-4.86,48,99,2.99,GL,1680362095
536,santa isabel do rio negro,-0.4139,-65.0192,31.12,60,100,0.7,BR,1680361966
537,faya,18.3851,42.4509,18.29,72,88,3.98,SA,1680362095
538,benguela,-12.5763,13.4055,28.52,64,97,3.7,AO,1680362095
539,gannan,47.9147,123.5031,14.81,29,100,2.91,CN,1680362095
540,santa rosa,14.3122,121.1114,28.99,83,13,2.4,PH,1680362095
541,arman,59.7,150.1667,-3.52,96,100,1.57,RU,1680362096
542,te anau,-45.4167,167.7167,10.61,94,16,0.99,NZ,1680362096
543,mattru,7.6244,-11.8332,36.99,35,8,1.25,SL,1680362096
544,taltal,-25.4,-70.4833,22.53,75,14,2.32,CL,1680362096
545,bilibino,68.0546,166.4372,-25.72,100,100,1.54,RU,1680362096
546,ozernovskiy,51.5,156.5167,-1.77,78,0,3.9,RU,1680362096
547,payakumbuh,-0.2202,100.6308,20.89,97,100,1.36,ID,1680362096
548,adre,13.4667,22.2,34.37,9,55,2.27,TD,1680362096
549,cururupu,-1.8283,-44.8683,23.45,96,100,0.57,BR,1680362034
550,tignere,7.3667,12.65,33.99,12,11,2.42,CM,1680362096
551,kudahuvadhoo,2.6708,72.8944,28.51,69,53,2.04,MV,1680362096
552,perivolion,39.4206,20.0147,18.75,87,91,3.88,GR,1680362096
553,knysna,-34.0363,23.0471,22.38,49,0,3.95,ZA,1680362096
554,wamba,8.9333,8.6,38.3,15,90,2.41,NG,1680362096
555,san jeronimo,-11.9472,-75.2829,9.13,91,100,1.65,PE,1680362096
556,bose,45.4612,8.0137,20.69,24,27,1.65,IT,1680362096
557,mujiayingzi,42.1167,118.7833,11.28,49,3,3.22,CN,1680362097
558,caravelas,-17.7125,-39.2481,31.78,49,0,4.64,BR,1680362097
